{
"type": "FeatureCollection",
"name": "metrostation",
"crs": { "type": "name", "properties": { "name": "urn:ogc:def:crs:OGC:1.3:CRS84" } },
"features": [
{ "type": "Feature", "properties": { "name": "义桥(地铁站)", "address": "(在建)18号线" }, "geometry": { "type": "Point", "coordinates": [ 120.182052, 30.060942 ] } },
{ "type": "Feature", "properties": { "name": "时代大道(地铁站)", "address": "(在建)18号线" }, "geometry": { "type": "Point", "coordinates": [ 120.1868, 30.110687 ] } },
{ "type": "Feature", "properties": { "name": "闻堰(地铁站)", "address": "(在建)18号线;(在建)4号线三期南延段" }, "geometry": { "type": "Point", "coordinates": [ 120.179056, 30.129517 ] } },
{ "type": "Feature", "properties": { "name": "万达中路(地铁站)", "address": "(在建)4号线三期南延段" }, "geometry": { "type": "Point", "coordinates": [ 120.169894, 30.130565 ] } },
{ "type": "Feature", "properties": { "name": "万达北路(地铁站)", "address": "(在建)4号线三期南延段" }, "geometry": { "type": "Point", "coordinates": [ 120.158479, 30.140001 ] } },
{ "type": "Feature", "properties": { "name": "湘滨路(地铁站)", "address": "(在建)18号线" }, "geometry": { "type": "Point", "coordinates": [ 120.183303, 30.140193 ] } },
{ "type": "Feature", "properties": { "name": "浦炬街(地铁站)", "address": "(在建)4号线三期南延段" }, "geometry": { "type": "Point", "coordinates": [ 120.155496, 30.147945 ] } },
{ "type": "Feature", "properties": { "name": "浦沿(地铁站)", "address": "(在建)4号线三期南延段;4号线" }, "geometry": { "type": "Point", "coordinates": [ 120.153951, 30.158657 ] } },
{ "type": "Feature", "properties": { "name": "杨家墩(地铁站)", "address": "4号线" }, "geometry": { "type": "Point", "coordinates": [ 120.14886, 30.16782 ] } },
{ "type": "Feature", "properties": { "name": "伟业路(地铁站)", "address": "6号线" }, "geometry": { "type": "Point", "coordinates": [ 120.159056, 30.182364 ] } },
{ "type": "Feature", "properties": { "name": "周九路(地铁站)", "address": "(在建)12号线南段" }, "geometry": { "type": "Point", "coordinates": [ 120.081855, 30.100211 ] } },
{ "type": "Feature", "properties": { "name": "双浦(地铁站)", "address": "(在建)12号线南段;6号线" }, "geometry": { "type": "Point", "coordinates": [ 120.08378, 30.115971 ] } },
{ "type": "Feature", "properties": { "name": "科海路(地铁站)", "address": "6号线" }, "geometry": { "type": "Point", "coordinates": [ 120.08702, 30.129544 ] } },
{ "type": "Feature", "properties": { "name": "美院象山(地铁站)", "address": "(在建)地铁12号线北段;6号线" }, "geometry": { "type": "Point", "coordinates": [ 120.081328, 30.151172 ] } },
{ "type": "Feature", "properties": { "name": "枫桦西路(地铁站)", "address": "6号线" }, "geometry": { "type": "Point", "coordinates": [ 120.098965, 30.155261 ] } },
{ "type": "Feature", "properties": { "name": "之江文化中心(地铁站)", "address": "6号线" }, "geometry": { "type": "Point", "coordinates": [ 120.107708, 30.157966 ] } },
{ "type": "Feature", "properties": { "name": "丽景路(地铁站)", "address": "(在建)地铁12号线北段" }, "geometry": { "type": "Point", "coordinates": [ 120.091832, 30.158899 ] } },
{ "type": "Feature", "properties": { "name": "西浦路(地铁站)", "address": "6号线" }, "geometry": { "type": "Point", "coordinates": [ 120.137629, 30.168709 ] } },
{ "type": "Feature", "properties": { "name": "中医药大学(地铁站)", "address": "4号线;6号线" }, "geometry": { "type": "Point", "coordinates": [ 120.146432, 30.175802 ] } },
{ "type": "Feature", "properties": { "name": "花坞(地铁站)", "address": "3号线" }, "geometry": { "type": "Point", "coordinates": [ 120.076724, 30.26075 ] } },
{ "type": "Feature", "properties": { "name": "霞鸣街(地铁站)", "address": "6号线" }, "geometry": { "type": "Point", "coordinates": [ 120.073174, 30.14323 ] } },
{ "type": "Feature", "properties": { "name": "中村(地铁站)", "address": "6号线" }, "geometry": { "type": "Point", "coordinates": [ 120.038732, 30.147274 ] } },
{ "type": "Feature", "properties": { "name": "音乐学院(地铁站)", "address": "6号线" }, "geometry": { "type": "Point", "coordinates": [ 120.056645, 30.147798 ] } },
{ "type": "Feature", "properties": { "name": "庙山(地铁站)", "address": "(在建)地铁12号线北段" }, "geometry": { "type": "Point", "coordinates": [ 120.074978, 30.165652 ] } },
{ "type": "Feature", "properties": { "name": "叶埠桥路(地铁站)", "address": "(在建)地铁12号线北段" }, "geometry": { "type": "Point", "coordinates": [ 120.057268, 30.180583 ] } },
{ "type": "Feature", "properties": { "name": "龙坞(地铁站)", "address": "(在建)地铁12号线北段" }, "geometry": { "type": "Point", "coordinates": [ 120.047664, 30.183676 ] } },
{ "type": "Feature", "properties": { "name": "慈母桥(地铁站)", "address": "(在建)地铁12号线北段" }, "geometry": { "type": "Point", "coordinates": [ 120.037206, 30.188562 ] } },
{ "type": "Feature", "properties": { "name": "石马(地铁站)", "address": "3号线" }, "geometry": { "type": "Point", "coordinates": [ 120.010966, 30.206719 ] } },
{ "type": "Feature", "properties": { "name": "小和山(地铁站)", "address": "(在建)地铁12号线北段;3号线" }, "geometry": { "type": "Point", "coordinates": [ 120.021176, 30.212018 ] } },
{ "type": "Feature", "properties": { "name": "屏峰(地铁站)", "address": "3号线" }, "geometry": { "type": "Point", "coordinates": [ 120.037251, 30.222908 ] } },
{ "type": "Feature", "properties": { "name": "联庄(地铁站)", "address": "4号线" }, "geometry": { "type": "Point", "coordinates": [ 120.152024, 30.186648 ] } },
{ "type": "Feature", "properties": { "name": "诚业路(地铁站)", "address": "6号线" }, "geometry": { "type": "Point", "coordinates": [ 120.170027, 30.186693 ] } },
{ "type": "Feature", "properties": { "name": "建业路(地铁站)", "address": "6号线" }, "geometry": { "type": "Point", "coordinates": [ 120.178743, 30.190474 ] } },
{ "type": "Feature", "properties": { "name": "水澄桥(地铁站)", "address": "4号线" }, "geometry": { "type": "Point", "coordinates": [ 120.151946, 30.204075 ] } },
{ "type": "Feature", "properties": { "name": "复兴路(地铁站)", "address": "4号线" }, "geometry": { "type": "Point", "coordinates": [ 120.163407, 30.210287 ] } },
{ "type": "Feature", "properties": { "name": "南星桥(地铁站)", "address": "4号线;5号线" }, "geometry": { "type": "Point", "coordinates": [ 120.177384, 30.217295 ] } },
{ "type": "Feature", "properties": { "name": "候潮门(地铁站)", "address": "5号线" }, "geometry": { "type": "Point", "coordinates": [ 120.173153, 30.226059 ] } },
{ "type": "Feature", "properties": { "name": "江城路(地铁站)", "address": "5号线;7号线" }, "geometry": { "type": "Point", "coordinates": [ 120.178205, 30.238561 ] } },
{ "type": "Feature", "properties": { "name": "吴山广场(地铁站)", "address": "7号线" }, "geometry": { "type": "Point", "coordinates": [ 120.163854, 30.23985 ] } },
{ "type": "Feature", "properties": { "name": "莫邪塘(地铁站)", "address": "(在建)18号线;7号线" }, "geometry": { "type": "Point", "coordinates": [ 120.187043, 30.243319 ] } },
{ "type": "Feature", "properties": { "name": "黄泥坞(地铁站)", "address": "(在建)地铁12号线北段" }, "geometry": { "type": "Point", "coordinates": [ 120.020603, 30.231731 ] } },
{ "type": "Feature", "properties": { "name": "留下(地铁站)", "address": "3号线" }, "geometry": { "type": "Point", "coordinates": [ 120.052093, 30.241056 ] } },
{ "type": "Feature", "properties": { "name": "高教路(地铁站)", "address": "(在建)地铁12号线北段;3号线" }, "geometry": { "type": "Point", "coordinates": [ 120.019406, 30.242871 ] } },
{ "type": "Feature", "properties": { "name": "中泰(地铁站)", "address": "16号线" }, "geometry": { "type": "Point", "coordinates": [ 119.929447, 30.243033 ] } },
{ "type": "Feature", "properties": { "name": "联胜路(地铁站)", "address": "3号线" }, "geometry": { "type": "Point", "coordinates": [ 120.032497, 30.244061 ] } },
{ "type": "Feature", "properties": { "name": "南湖(地铁站)", "address": "16号线" }, "geometry": { "type": "Point", "coordinates": [ 119.899603, 30.246777 ] } },
{ "type": "Feature", "properties": { "name": "全丰(地铁站)", "address": "3号线" }, "geometry": { "type": "Point", "coordinates": [ 120.008123, 30.246863 ] } },
{ "type": "Feature", "properties": { "name": "洪园(地铁站)", "address": "3号线" }, "geometry": { "type": "Point", "coordinates": [ 120.050372, 30.24829 ] } },
{ "type": "Feature", "properties": { "name": "禹航路(地铁站)", "address": "16号线" }, "geometry": { "type": "Point", "coordinates": [ 119.955554, 30.248755 ] } },
{ "type": "Feature", "properties": { "name": "南峰(地铁站)", "address": "16号线" }, "geometry": { "type": "Point", "coordinates": [ 119.878316, 30.249779 ] } },
{ "type": "Feature", "properties": { "name": "城站(地铁站)", "address": "1号线;5号线" }, "geometry": { "type": "Point", "coordinates": [ 120.180768, 30.244717 ] } },
{ "type": "Feature", "properties": { "name": "定安路(地铁站)", "address": "1号线" }, "geometry": { "type": "Point", "coordinates": [ 120.167751, 30.245954 ] } },
{ "type": "Feature", "properties": { "name": "万安桥(地铁站)", "address": "5号线" }, "geometry": { "type": "Point", "coordinates": [ 120.180417, 30.252901 ] } },
{ "type": "Feature", "properties": { "name": "龙翔桥(地铁站)", "address": "1号线" }, "geometry": { "type": "Point", "coordinates": [ 120.164052, 30.254642 ] } },
{ "type": "Feature", "properties": { "name": "凤起路(地铁站)", "address": "1号线;2号线" }, "geometry": { "type": "Point", "coordinates": [ 120.162887, 30.263779 ] } },
{ "type": "Feature", "properties": { "name": "建国北路(地铁站)", "address": "2号线;5号线" }, "geometry": { "type": "Point", "coordinates": [ 120.180761, 30.264552 ] } },
{ "type": "Feature", "properties": { "name": "中河北路(地铁站)", "address": "2号线" }, "geometry": { "type": "Point", "coordinates": [ 120.172436, 30.264596 ] } },
{ "type": "Feature", "properties": { "name": "武林门(地铁站)", "address": "2号线;3号线" }, "geometry": { "type": "Point", "coordinates": [ 120.155365, 30.269668 ] } },
{ "type": "Feature", "properties": { "name": "宝善桥(地铁站)", "address": "5号线" }, "geometry": { "type": "Point", "coordinates": [ 120.179868, 30.271799 ] } },
{ "type": "Feature", "properties": { "name": "武林广场(地铁站)", "address": "1号线;3号线" }, "geometry": { "type": "Point", "coordinates": [ 120.164324, 30.272368 ] } },
{ "type": "Feature", "properties": { "name": "水乡南路(地铁站)", "address": "(在建)地铁12号线北段" }, "geometry": { "type": "Point", "coordinates": [ 120.019345, 30.25329 ] } },
{ "type": "Feature", "properties": { "name": "西溪湿地南(地铁站)", "address": "3号线" }, "geometry": { "type": "Point", "coordinates": [ 120.061779, 30.253858 ] } },
{ "type": "Feature", "properties": { "name": "南湖东(地铁站)", "address": "5号线" }, "geometry": { "type": "Point", "coordinates": [ 119.946993, 30.260024 ] } },
{ "type": "Feature", "properties": { "name": "凤新路(地铁站)", "address": "16号线" }, "geometry": { "type": "Point", "coordinates": [ 119.968843, 30.260134 ] } },
{ "type": "Feature", "properties": { "name": "绿汀路(地铁站)", "address": "16号线;3号线;5号线" }, "geometry": { "type": "Point", "coordinates": [ 119.992062, 30.26014 ] } },
{ "type": "Feature", "properties": { "name": "创明路(地铁站)", "address": "3号线" }, "geometry": { "type": "Point", "coordinates": [ 120.002285, 30.260658 ] } },
{ "type": "Feature", "properties": { "name": "金星(地铁站)", "address": "5号线" }, "geometry": { "type": "Point", "coordinates": [ 119.966536, 30.265041 ] } },
{ "type": "Feature", "properties": { "name": "水乡北路(地铁站)", "address": "(在建)地铁12号线北段" }, "geometry": { "type": "Point", "coordinates": [ 120.023247, 30.270065 ] } },
{ "type": "Feature", "properties": { "name": "葛巷(地铁站)", "address": "5号线" }, "geometry": { "type": "Point", "coordinates": [ 119.99882, 30.270354 ] } },
{ "type": "Feature", "properties": { "name": "文一西路(地铁站)", "address": "3号线" }, "geometry": { "type": "Point", "coordinates": [ 119.98065, 30.27499 ] } },
{ "type": "Feature", "properties": { "name": "东岳(地铁站)", "address": "3号线" }, "geometry": { "type": "Point", "coordinates": [ 120.089527, 30.262171 ] } },
{ "type": "Feature", "properties": { "name": "古墩路(地铁站)", "address": "3号线" }, "geometry": { "type": "Point", "coordinates": [ 120.101975, 30.265363 ] } },
{ "type": "Feature", "properties": { "name": "黄龙洞(地铁站)", "address": "3号线" }, "geometry": { "type": "Point", "coordinates": [ 120.140449, 30.265387 ] } },
{ "type": "Feature", "properties": { "name": "黄龙体育中心(地铁站)", "address": "10号线;3号线" }, "geometry": { "type": "Point", "coordinates": [ 120.129899, 30.26819 ] } },
{ "type": "Feature", "properties": { "name": "古荡新村(地铁站)", "address": "3号线" }, "geometry": { "type": "Point", "coordinates": [ 120.111229, 30.269789 ] } },
{ "type": "Feature", "properties": { "name": "古荡(地铁站)", "address": "3号线" }, "geometry": { "type": "Point", "coordinates": [ 120.122457, 30.270848 ] } },
{ "type": "Feature", "properties": { "name": "五联(地铁站)", "address": "19号线" }, "geometry": { "type": "Point", "coordinates": [ 120.099107, 30.275803 ] } },
{ "type": "Feature", "properties": { "name": "文三路(地铁站)", "address": "10号线;19号线" }, "geometry": { "type": "Point", "coordinates": [ 120.129964, 30.276862 ] } },
{ "type": "Feature", "properties": { "name": "丰潭路(地铁站)", "address": "2号线" }, "geometry": { "type": "Point", "coordinates": [ 120.109629, 30.281911 ] } },
{ "type": "Feature", "properties": { "name": "古翠路(地铁站)", "address": "2号线" }, "geometry": { "type": "Point", "coordinates": [ 120.117918, 30.282192 ] } },
{ "type": "Feature", "properties": { "name": "创景路(地铁站)", "address": "19号线;5号线" }, "geometry": { "type": "Point", "coordinates": [ 119.998033, 30.278112 ] } },
{ "type": "Feature", "properties": { "name": "海创园(地铁站)", "address": "(在建)地铁12号线北段;19号线" }, "geometry": { "type": "Point", "coordinates": [ 120.020641, 30.280071 ] } },
{ "type": "Feature", "properties": { "name": "西溪湿地北(地铁站)", "address": "19号线" }, "geometry": { "type": "Point", "coordinates": [ 120.069922, 30.281847 ] } },
{ "type": "Feature", "properties": { "name": "良睦路(地铁站)", "address": "5号线" }, "geometry": { "type": "Point", "coordinates": [ 120.007357, 30.285682 ] } },
{ "type": "Feature", "properties": { "name": "荆长路(地铁站)", "address": "19号线" }, "geometry": { "type": "Point", "coordinates": [ 120.043381, 30.286534 ] } },
{ "type": "Feature", "properties": { "name": "龙舟北路(地铁站)", "address": "3号线" }, "geometry": { "type": "Point", "coordinates": [ 119.983173, 30.287954 ] } },
{ "type": "Feature", "properties": { "name": "杭师大仓前(地铁站)", "address": "(在建)地铁12号线北段;5号线" }, "geometry": { "type": "Point", "coordinates": [ 120.01721, 30.288592 ] } },
{ "type": "Feature", "properties": { "name": "永福(地铁站)", "address": "5号线" }, "geometry": { "type": "Point", "coordinates": [ 120.027057, 30.291577 ] } },
{ "type": "Feature", "properties": { "name": "蒋村(地铁站)", "address": "5号线" }, "geometry": { "type": "Point", "coordinates": [ 120.067353, 30.29484 ] } },
{ "type": "Feature", "properties": { "name": "五常(地铁站)", "address": "5号线" }, "geometry": { "type": "Point", "coordinates": [ 120.044889, 30.296279 ] } },
{ "type": "Feature", "properties": { "name": "西湖文化广场(地铁站)", "address": "19号线;1号线;3号线" }, "geometry": { "type": "Point", "coordinates": [ 120.165639, 30.279585 ] } },
{ "type": "Feature", "properties": { "name": "沈塘桥(地铁站)", "address": "19号线;2号线" }, "geometry": { "type": "Point", "coordinates": [ 120.150223, 30.280146 ] } },
{ "type": "Feature", "properties": { "name": "松艮路(地铁站)", "address": "(在建)15号线" }, "geometry": { "type": "Point", "coordinates": [ 120.181872, 30.281235 ] } },
{ "type": "Feature", "properties": { "name": "打铁关(地铁站)", "address": "(在建)15号线;1号线;5号线" }, "geometry": { "type": "Point", "coordinates": [ 120.176739, 30.285425 ] } },
{ "type": "Feature", "properties": { "name": "潮王路(地铁站)", "address": "3号线" }, "geometry": { "type": "Point", "coordinates": [ 120.158795, 30.290314 ] } },
{ "type": "Feature", "properties": { "name": "和平会展中心(地铁站)", "address": "(在建)15号线" }, "geometry": { "type": "Point", "coordinates": [ 120.173907, 30.291806 ] } },
{ "type": "Feature", "properties": { "name": "杭氧(地铁站)", "address": "5号线" }, "geometry": { "type": "Point", "coordinates": [ 120.178913, 30.295539 ] } },
{ "type": "Feature", "properties": { "name": "城北体育公园(地铁站)", "address": "(在建)15号线" }, "geometry": { "type": "Point", "coordinates": [ 120.161733, 30.305044 ] } },
{ "type": "Feature", "properties": { "name": "大关(地铁站)", "address": "3号线" }, "geometry": { "type": "Point", "coordinates": [ 120.149143, 30.307815 ] } },
{ "type": "Feature", "properties": { "name": "东新园(地铁站)", "address": "5号线" }, "geometry": { "type": "Point", "coordinates": [ 120.175849, 30.308325 ] } },
{ "type": "Feature", "properties": { "name": "亚太路(地铁站)", "address": "(在建)15号线" }, "geometry": { "type": "Point", "coordinates": [ 120.251116, 30.11169 ] } },
{ "type": "Feature", "properties": { "name": "蜀山(地铁站)", "address": "(在建)15号线" }, "geometry": { "type": "Point", "coordinates": [ 120.250885, 30.121678 ] } },
{ "type": "Feature", "properties": { "name": "朝阳(地铁站)", "address": "2号线" }, "geometry": { "type": "Point", "coordinates": [ 120.268228, 30.122219 ] } },
{ "type": "Feature", "properties": { "name": "向旭路(地铁站)", "address": "(在建)15号线" }, "geometry": { "type": "Point", "coordinates": [ 120.25063, 30.131912 ] } },
{ "type": "Feature", "properties": { "name": "曹家桥(地铁站)", "address": "2号线" }, "geometry": { "type": "Point", "coordinates": [ 120.267867, 30.134524 ] } },
{ "type": "Feature", "properties": { "name": "南秀路(地铁站)", "address": "(在建)15号线" }, "geometry": { "type": "Point", "coordinates": [ 120.251046, 30.144333 ] } },
{ "type": "Feature", "properties": { "name": "潘水(地铁站)", "address": "2号线" }, "geometry": { "type": "Point", "coordinates": [ 120.267644, 30.148186 ] } },
{ "type": "Feature", "properties": { "name": "人民路(地铁站)", "address": "2号线" }, "geometry": { "type": "Point", "coordinates": [ 120.267502, 30.159176 ] } },
{ "type": "Feature", "properties": { "name": "西山公园(地铁站)", "address": "(在建)15号线" }, "geometry": { "type": "Point", "coordinates": [ 120.251941, 30.163117 ] } },
{ "type": "Feature", "properties": { "name": "杭发厂(地铁站)", "address": "2号线" }, "geometry": { "type": "Point", "coordinates": [ 120.267205, 30.170619 ] } },
{ "type": "Feature", "properties": { "name": "民丰(地铁站)", "address": "(在建)18号线" }, "geometry": { "type": "Point", "coordinates": [ 120.19041, 30.084859 ] } },
{ "type": "Feature", "properties": { "name": "白马湖(地铁站)", "address": "(在建)18号线" }, "geometry": { "type": "Point", "coordinates": [ 120.197347, 30.160898 ] } },
{ "type": "Feature", "properties": { "name": "湘湖(地铁站)", "address": "1号线" }, "geometry": { "type": "Point", "coordinates": [ 120.234391, 30.167585 ] } },
{ "type": "Feature", "properties": { "name": "江晖路(地铁站)", "address": "(在建)18号线;5号线" }, "geometry": { "type": "Point", "coordinates": [ 120.212417, 30.181579 ] } },
{ "type": "Feature", "properties": { "name": "聚才路(地铁站)", "address": "5号线" }, "geometry": { "type": "Point", "coordinates": [ 120.198803, 30.182426 ] } },
{ "type": "Feature", "properties": { "name": "滨康路(地铁站)", "address": "1号线;5号线" }, "geometry": { "type": "Point", "coordinates": [ 120.231003, 30.183864 ] } },
{ "type": "Feature", "properties": { "name": "西兴(地铁站)", "address": "1号线" }, "geometry": { "type": "Point", "coordinates": [ 120.220429, 30.187295 ] } },
{ "type": "Feature", "properties": { "name": "长河(地铁站)", "address": "5号线;6号线" }, "geometry": { "type": "Point", "coordinates": [ 120.193941, 30.197248 ] } },
{ "type": "Feature", "properties": { "name": "滨和路(地铁站)", "address": "1号线" }, "geometry": { "type": "Point", "coordinates": [ 120.217552, 30.19955 ] } },
{ "type": "Feature", "properties": { "name": "江汉路(地铁站)", "address": "(在建)18号线;6号线" }, "geometry": { "type": "Point", "coordinates": [ 120.204943, 30.202836 ] } },
{ "type": "Feature", "properties": { "name": "衙前(地铁站)", "address": "绍兴1号线" }, "geometry": { "type": "Point", "coordinates": [ 120.359979, 30.163186 ] } },
{ "type": "Feature", "properties": { "name": "火车南站(地铁站)", "address": "5号线" }, "geometry": { "type": "Point", "coordinates": [ 120.297331, 30.17267 ] } },
{ "type": "Feature", "properties": { "name": "双桥(地铁站)", "address": "5号线" }, "geometry": { "type": "Point", "coordinates": [ 120.30877, 30.173139 ] } },
{ "type": "Feature", "properties": { "name": "姑娘桥(地铁站)", "address": "5号线;绍兴1号线" }, "geometry": { "type": "Point", "coordinates": [ 120.330313, 30.176001 ] } },
{ "type": "Feature", "properties": { "name": "盈中(地铁站)", "address": "7号线" }, "geometry": { "type": "Point", "coordinates": [ 120.363029, 30.197715 ] } },
{ "type": "Feature", "properties": { "name": "坎山(地铁站)", "address": "7号线" }, "geometry": { "type": "Point", "coordinates": [ 120.395099, 30.197785 ] } },
{ "type": "Feature", "properties": { "name": "合欢路(地铁站)", "address": "7号线" }, "geometry": { "type": "Point", "coordinates": [ 120.343647, 30.198105 ] } },
{ "type": "Feature", "properties": { "name": "新街(地铁站)", "address": "7号线" }, "geometry": { "type": "Point", "coordinates": [ 120.330917, 30.199369 ] } },
{ "type": "Feature", "properties": { "name": "新汉路(地铁站)", "address": "7号线" }, "geometry": { "type": "Point", "coordinates": [ 120.306507, 30.202985 ] } },
{ "type": "Feature", "properties": { "name": "新兴路(地铁站)", "address": "7号线" }, "geometry": { "type": "Point", "coordinates": [ 120.295186, 30.204808 ] } },
{ "type": "Feature", "properties": { "name": "萧棉路(地铁站)", "address": "(在建)15号线" }, "geometry": { "type": "Point", "coordinates": [ 120.253532, 30.174083 ] } },
{ "type": "Feature", "properties": { "name": "通惠中路(地铁站)", "address": "5号线" }, "geometry": { "type": "Point", "coordinates": [ 120.285183, 30.180485 ] } },
{ "type": "Feature", "properties": { "name": "育才北路(地铁站)", "address": "5号线" }, "geometry": { "type": "Point", "coordinates": [ 120.275911, 30.180797 ] } },
{ "type": "Feature", "properties": { "name": "人民广场(地铁站)", "address": "2号线;5号线" }, "geometry": { "type": "Point", "coordinates": [ 120.266803, 30.181086 ] } },
{ "type": "Feature", "properties": { "name": "金鸡路(地铁站)", "address": "(在建)15号线;5号线" }, "geometry": { "type": "Point", "coordinates": [ 120.253402, 30.181697 ] } },
{ "type": "Feature", "properties": { "name": "博奥路(地铁站)", "address": "5号线" }, "geometry": { "type": "Point", "coordinates": [ 120.244164, 30.182338 ] } },
{ "type": "Feature", "properties": { "name": "建设一路(地铁站)", "address": "2号线" }, "geometry": { "type": "Point", "coordinates": [ 120.266538, 30.194046 ] } },
{ "type": "Feature", "properties": { "name": "建设一路西(地铁站)", "address": "(在建)15号线" }, "geometry": { "type": "Point", "coordinates": [ 120.249291, 30.194326 ] } },
{ "type": "Feature", "properties": { "name": "建设三路(地铁站)", "address": "2号线;7号线" }, "geometry": { "type": "Point", "coordinates": [ 120.268252, 30.204512 ] } },
{ "type": "Feature", "properties": { "name": "明星路(地铁站)", "address": "(在建)15号线;7号线" }, "geometry": { "type": "Point", "coordinates": [ 120.248729, 30.204718 ] } },
{ "type": "Feature", "properties": { "name": "江陵路(地铁站)", "address": "1号线;6号线" }, "geometry": { "type": "Point", "coordinates": [ 120.216594, 30.209102 ] } },
{ "type": "Feature", "properties": { "name": "星民(地铁站)", "address": "6号线" }, "geometry": { "type": "Point", "coordinates": [ 120.22386, 30.213218 ] } },
{ "type": "Feature", "properties": { "name": "甬江路(地铁站)", "address": "(在建)18号线;4号线" }, "geometry": { "type": "Point", "coordinates": [ 120.189451, 30.223287 ] } },
{ "type": "Feature", "properties": { "name": "奥体中心(地铁站)", "address": "6号线;7号线" }, "geometry": { "type": "Point", "coordinates": [ 120.232974, 30.224071 ] } },
{ "type": "Feature", "properties": { "name": "近江(地铁站)", "address": "1号线;4号线" }, "geometry": { "type": "Point", "coordinates": [ 120.197458, 30.231125 ] } },
{ "type": "Feature", "properties": { "name": "博览中心(地铁站)", "address": "6号线" }, "geometry": { "type": "Point", "coordinates": [ 120.236506, 30.232448 ] } },
{ "type": "Feature", "properties": { "name": "婺江路(地铁站)", "address": "1号线" }, "geometry": { "type": "Point", "coordinates": [ 120.191101, 30.23682 ] } },
{ "type": "Feature", "properties": { "name": "城星路(地铁站)", "address": "4号线" }, "geometry": { "type": "Point", "coordinates": [ 120.206954, 30.239643 ] } },
{ "type": "Feature", "properties": { "name": "市民中心(地铁站)", "address": "4号线;7号线" }, "geometry": { "type": "Point", "coordinates": [ 120.211213, 30.244809 ] } },
{ "type": "Feature", "properties": { "name": "观音塘(地铁站)", "address": "7号线;9号线" }, "geometry": { "type": "Point", "coordinates": [ 120.201609, 30.247079 ] } },
{ "type": "Feature", "properties": { "name": "兴议(地铁站)", "address": "7号线" }, "geometry": { "type": "Point", "coordinates": [ 120.23859, 30.212135 ] } },
{ "type": "Feature", "properties": { "name": "丰二(地铁站)", "address": "(在建)15号线" }, "geometry": { "type": "Point", "coordinates": [ 120.249215, 30.214779 ] } },
{ "type": "Feature", "properties": { "name": "振宁路(地铁站)", "address": "2号线" }, "geometry": { "type": "Point", "coordinates": [ 120.269215, 30.217695 ] } },
{ "type": "Feature", "properties": { "name": "合丰(地铁站)", "address": "(在建)15号线" }, "geometry": { "type": "Point", "coordinates": [ 120.248709, 30.223572 ] } },
{ "type": "Feature", "properties": { "name": "飞虹路(地铁站)", "address": "2号线" }, "geometry": { "type": "Point", "coordinates": [ 120.263328, 30.230955 ] } },
{ "type": "Feature", "properties": { "name": "盈丰路(地铁站)", "address": "(在建)15号线;2号线" }, "geometry": { "type": "Point", "coordinates": [ 120.252501, 30.236997 ] } },
{ "type": "Feature", "properties": { "name": "钱江世纪城(地铁站)", "address": "2号线;6号线" }, "geometry": { "type": "Point", "coordinates": [ 120.244477, 30.240379 ] } },
{ "type": "Feature", "properties": { "name": "丰北(地铁站)", "address": "(在建)15号线;6号线" }, "geometry": { "type": "Point", "coordinates": [ 120.250235, 30.250049 ] } },
{ "type": "Feature", "properties": { "name": "亚运村(地铁站)", "address": "6号线" }, "geometry": { "type": "Point", "coordinates": [ 120.247398, 30.257688 ] } },
{ "type": "Feature", "properties": { "name": "平澜路(地铁站)", "address": "19号线" }, "geometry": { "type": "Point", "coordinates": [ 120.258554, 30.25997 ] } },
{ "type": "Feature", "properties": { "name": "新港(地铁站)", "address": "7号线" }, "geometry": { "type": "Point", "coordinates": [ 120.408416, 30.219239 ] } },
{ "type": "Feature", "properties": { "name": "知行路(地铁站)", "address": "19号线" }, "geometry": { "type": "Point", "coordinates": [ 120.335746, 30.228366 ] } },
{ "type": "Feature", "properties": { "name": "萧山国际机场(地铁站)", "address": "19号线;1号线;7号线" }, "geometry": { "type": "Point", "coordinates": [ 120.433114, 30.235568 ] } },
{ "type": "Feature", "properties": { "name": "永盛路(地铁站)", "address": "19号线;7号线" }, "geometry": { "type": "Point", "coordinates": [ 120.473016, 30.236479 ] } },
{ "type": "Feature", "properties": { "name": "耕文路(地铁站)", "address": "19号线" }, "geometry": { "type": "Point", "coordinates": [ 120.301767, 30.239989 ] } },
{ "type": "Feature", "properties": { "name": "新镇路(地铁站)", "address": "7号线" }, "geometry": { "type": "Point", "coordinates": [ 120.484197, 30.258395 ] } },
{ "type": "Feature", "properties": { "name": "向阳路(地铁站)", "address": "1号线" }, "geometry": { "type": "Point", "coordinates": [ 120.442496, 30.260143 ] } },
{ "type": "Feature", "properties": { "name": "南阳(地铁站)", "address": "1号线" }, "geometry": { "type": "Point", "coordinates": [ 120.436287, 30.270107 ] } },
{ "type": "Feature", "properties": { "name": "港城大道(地铁站)", "address": "1号线" }, "geometry": { "type": "Point", "coordinates": [ 120.426089, 30.270676 ] } },
{ "type": "Feature", "properties": { "name": "杭州大会展中心(地铁站)", "address": "1号线" }, "geometry": { "type": "Point", "coordinates": [ 120.411964, 30.271186 ] } },
{ "type": "Feature", "properties": { "name": "新业路(地铁站)", "address": "9号线" }, "geometry": { "type": "Point", "coordinates": [ 120.208875, 30.24912 ] } },
{ "type": "Feature", "properties": { "name": "江锦路(地铁站)", "address": "4号线" }, "geometry": { "type": "Point", "coordinates": [ 120.215568, 30.249727 ] } },
{ "type": "Feature", "properties": { "name": "钱江路(地铁站)", "address": "2号线;4号线;9号线" }, "geometry": { "type": "Point", "coordinates": [ 120.213387, 30.255978 ] } },
{ "type": "Feature", "properties": { "name": "庆春广场(地铁站)", "address": "2号线" }, "geometry": { "type": "Point", "coordinates": [ 120.204748, 30.257602 ] } },
{ "type": "Feature", "properties": { "name": "庆菱路(地铁站)", "address": "2号线" }, "geometry": { "type": "Point", "coordinates": [ 120.193077, 30.257613 ] } },
{ "type": "Feature", "properties": { "name": "江河汇(地铁站)", "address": "(在建)15号线;9号线" }, "geometry": { "type": "Point", "coordinates": [ 120.221398, 30.261374 ] } },
{ "type": "Feature", "properties": { "name": "景芳(地铁站)", "address": "(在建)15号线;4号线" }, "geometry": { "type": "Point", "coordinates": [ 120.207708, 30.264903 ] } },
{ "type": "Feature", "properties": { "name": "华家池(地铁站)", "address": "(在建)15号线;(在建)18号线" }, "geometry": { "type": "Point", "coordinates": [ 120.19126, 30.266815 ] } },
{ "type": "Feature", "properties": { "name": "三堡(地铁站)", "address": "6号线;9号线" }, "geometry": { "type": "Point", "coordinates": [ 120.227958, 30.266822 ] } },
{ "type": "Feature", "properties": { "name": "御道(地铁站)", "address": "19号线;9号线" }, "geometry": { "type": "Point", "coordinates": [ 120.236213, 30.27391 ] } },
{ "type": "Feature", "properties": { "name": "义蓬(地铁站)", "address": "7号线" }, "geometry": { "type": "Point", "coordinates": [ 120.487218, 30.273879 ] } },
{ "type": "Feature", "properties": { "name": "塘新线(地铁站)", "address": "7号线" }, "geometry": { "type": "Point", "coordinates": [ 120.490308, 30.284492 ] } },
{ "type": "Feature", "properties": { "name": "下沙江滨(地铁站)", "address": "1号线" }, "geometry": { "type": "Point", "coordinates": [ 120.381725, 30.286768 ] } },
{ "type": "Feature", "properties": { "name": "仓北村(地铁站)", "address": "8号线" }, "geometry": { "type": "Point", "coordinates": [ 120.507671, 30.293839 ] } },
{ "type": "Feature", "properties": { "name": "冯娄村(地铁站)", "address": "8号线" }, "geometry": { "type": "Point", "coordinates": [ 120.521327, 30.294148 ] } },
{ "type": "Feature", "properties": { "name": "新湾路(地铁站)", "address": "8号线" }, "geometry": { "type": "Point", "coordinates": [ 120.541879, 30.294648 ] } },
{ "type": "Feature", "properties": { "name": "青六中路(地铁站)", "address": "7号线;8号线" }, "geometry": { "type": "Point", "coordinates": [ 120.49121, 30.297734 ] } },
{ "type": "Feature", "properties": { "name": "青西三路(地铁站)", "address": "8号线" }, "geometry": { "type": "Point", "coordinates": [ 120.477728, 30.298257 ] } },
{ "type": "Feature", "properties": { "name": "河庄路(地铁站)", "address": "8号线" }, "geometry": { "type": "Point", "coordinates": [ 120.457946, 30.298731 ] } },
{ "type": "Feature", "properties": { "name": "云水(地铁站)", "address": "1号线" }, "geometry": { "type": "Point", "coordinates": [ 120.381787, 30.302893 ] } },
{ "type": "Feature", "properties": { "name": "新塘(地铁站)", "address": "4号线" }, "geometry": { "type": "Point", "coordinates": [ 120.207388, 30.276012 ] } },
{ "type": "Feature", "properties": { "name": "昙花庵路(地铁站)", "address": "6号线" }, "geometry": { "type": "Point", "coordinates": [ 120.222845, 30.276397 ] } },
{ "type": "Feature", "properties": { "name": "元宝塘(地铁站)", "address": "6号线" }, "geometry": { "type": "Point", "coordinates": [ 120.220572, 30.284007 ] } },
{ "type": "Feature", "properties": { "name": "闸弄口(地铁站)", "address": "(在建)18号线;1号线" }, "geometry": { "type": "Point", "coordinates": [ 120.19235, 30.284463 ] } },
{ "type": "Feature", "properties": { "name": "新风(地铁站)", "address": "4号线" }, "geometry": { "type": "Point", "coordinates": [ 120.20808, 30.287244 ] } },
{ "type": "Feature", "properties": { "name": "火车东站(地铁站)", "address": "1号线;4号线" }, "geometry": { "type": "Point", "coordinates": [ 120.213229, 30.291459 ] } },
{ "type": "Feature", "properties": { "name": "彭埠(地铁站)", "address": "1号线;4号线" }, "geometry": { "type": "Point", "coordinates": [ 120.223661, 30.294065 ] } },
{ "type": "Feature", "properties": { "name": "火车东站(东广场)(地铁站)", "address": "19号线;6号线" }, "geometry": { "type": "Point", "coordinates": [ 120.215712, 30.29429 ] } },
{ "type": "Feature", "properties": { "name": "驿城路(地铁站)", "address": "(在建)18号线;19号线" }, "geometry": { "type": "Point", "coordinates": [ 120.199177, 30.298381 ] } },
{ "type": "Feature", "properties": { "name": "枸桔弄(地铁站)", "address": "6号线" }, "geometry": { "type": "Point", "coordinates": [ 120.206547, 30.301238 ] } },
{ "type": "Feature", "properties": { "name": "学院路(地铁站)", "address": "10号线;2号线" }, "geometry": { "type": "Point", "coordinates": [ 120.129577, 30.282745 ] } },
{ "type": "Feature", "properties": { "name": "下宁桥(地铁站)", "address": "2号线" }, "geometry": { "type": "Point", "coordinates": [ 120.140128, 30.283325 ] } },
{ "type": "Feature", "properties": { "name": "文新(地铁站)", "address": "2号线" }, "geometry": { "type": "Point", "coordinates": [ 120.098193, 30.289251 ] } },
{ "type": "Feature", "properties": { "name": "翠柏路(地铁站)", "address": "10号线" }, "geometry": { "type": "Point", "coordinates": [ 120.128892, 30.290239 ] } },
{ "type": "Feature", "properties": { "name": "浙大紫金港(地铁站)", "address": "5号线" }, "geometry": { "type": "Point", "coordinates": [ 120.07671, 30.294167 ] } },
{ "type": "Feature", "properties": { "name": "香积寺(地铁站)", "address": "3号线" }, "geometry": { "type": "Point", "coordinates": [ 120.148795, 30.299974 ] } },
{ "type": "Feature", "properties": { "name": "三坝(地铁站)", "address": "2号线;5号线" }, "geometry": { "type": "Point", "coordinates": [ 120.0979, 30.30002 ] } },
{ "type": "Feature", "properties": { "name": "萍水街(地铁站)", "address": "5号线" }, "geometry": { "type": "Point", "coordinates": [ 120.112745, 30.302806 ] } },
{ "type": "Feature", "properties": { "name": "北大桥(地铁站)", "address": "10号线" }, "geometry": { "type": "Point", "coordinates": [ 120.12985, 30.303355 ] } },
{ "type": "Feature", "properties": { "name": "和睦(地铁站)", "address": "10号线;5号线" }, "geometry": { "type": "Point", "coordinates": [ 120.119367, 30.308544 ] } },
{ "type": "Feature", "properties": { "name": "火车西站(地铁站)", "address": "(在建)地铁12号线北段;19号线;3号线" }, "geometry": { "type": "Point", "coordinates": [ 119.986523, 30.297877 ] } },
{ "type": "Feature", "properties": { "name": "站北路(地铁站)", "address": "(在建)地铁12号线北段" }, "geometry": { "type": "Point", "coordinates": [ 120.001879, 30.300602 ] } },
{ "type": "Feature", "properties": { "name": "汤家村(地铁站)", "address": "3号线" }, "geometry": { "type": "Point", "coordinates": [ 119.981929, 30.305485 ] } },
{ "type": "Feature", "properties": { "name": "吴山前村(地铁站)", "address": "3号线" }, "geometry": { "type": "Point", "coordinates": [ 119.980178, 30.311359 ] } },
{ "type": "Feature", "properties": { "name": "云谷(地铁站)", "address": "(在建)4号线三期西延段" }, "geometry": { "type": "Point", "coordinates": [ 120.033202, 30.319026 ] } },
{ "type": "Feature", "properties": { "name": "苕溪(地铁站)", "address": "19号线" }, "geometry": { "type": "Point", "coordinates": [ 119.95922, 30.322395 ] } },
{ "type": "Feature", "properties": { "name": "莲池路(地铁站)", "address": "(在建)4号线三期西延段" }, "geometry": { "type": "Point", "coordinates": [ 120.054694, 30.324369 ] } },
{ "type": "Feature", "properties": { "name": "西湖大学(地铁站)", "address": "(在建)4号线三期西延段" }, "geometry": { "type": "Point", "coordinates": [ 120.038122, 30.326775 ] } },
{ "type": "Feature", "properties": { "name": "池华街(地铁站)", "address": "(在建)4号线三期西延段;4号线" }, "geometry": { "type": "Point", "coordinates": [ 120.068507, 30.327626 ] } },
{ "type": "Feature", "properties": { "name": "西湖大学东(地铁站)", "address": "(在建)4号线三期西延段" }, "geometry": { "type": "Point", "coordinates": [ 120.047654, 30.32921 ] } },
{ "type": "Feature", "properties": { "name": "虾龙圩(地铁站)", "address": "2号线" }, "geometry": { "type": "Point", "coordinates": [ 120.096383, 30.309587 ] } },
{ "type": "Feature", "properties": { "name": "花园岗(地铁站)", "address": "10号线" }, "geometry": { "type": "Point", "coordinates": [ 120.112958, 30.315717 ] } },
{ "type": "Feature", "properties": { "name": "拱宸桥东(地铁站)", "address": "5号线" }, "geometry": { "type": "Point", "coordinates": [ 120.147977, 30.317061 ] } },
{ "type": "Feature", "properties": { "name": "大运河(地铁站)", "address": "5号线" }, "geometry": { "type": "Point", "coordinates": [ 120.131341, 30.319279 ] } },
{ "type": "Feature", "properties": { "name": "三墩(地铁站)", "address": "2号线" }, "geometry": { "type": "Point", "coordinates": [ 120.093014, 30.320033 ] } },
{ "type": "Feature", "properties": { "name": "渡驾桥(地铁站)", "address": "10号线" }, "geometry": { "type": "Point", "coordinates": [ 120.115365, 30.324957 ] } },
{ "type": "Feature", "properties": { "name": "墩祥街(地铁站)", "address": "2号线" }, "geometry": { "type": "Point", "coordinates": [ 120.087615, 30.331667 ] } },
{ "type": "Feature", "properties": { "name": "祥园路(地铁站)", "address": "10号线" }, "geometry": { "type": "Point", "coordinates": [ 120.11645, 30.336761 ] } },
{ "type": "Feature", "properties": { "name": "金家渡(地铁站)", "address": "2号线;4号线" }, "geometry": { "type": "Point", "coordinates": [ 120.083937, 30.339103 ] } },
{ "type": "Feature", "properties": { "name": "谢村(地铁站)", "address": "(在建)15号线" }, "geometry": { "type": "Point", "coordinates": [ 120.147104, 30.344707 ] } },
{ "type": "Feature", "properties": { "name": "西文街(地铁站)", "address": "5号线" }, "geometry": { "type": "Point", "coordinates": [ 120.169934, 30.31603 ] } },
{ "type": "Feature", "properties": { "name": "善贤(地铁站)", "address": "3号线;5号线" }, "geometry": { "type": "Point", "coordinates": [ 120.160651, 30.317478 ] } },
{ "type": "Feature", "properties": { "name": "七古登(地铁站)", "address": "(在建)15号线" }, "geometry": { "type": "Point", "coordinates": [ 120.152687, 30.318634 ] } },
{ "type": "Feature", "properties": { "name": "新天地街(地铁站)", "address": "3号线;4号线" }, "geometry": { "type": "Point", "coordinates": [ 120.179584, 30.321168 ] } },
{ "type": "Feature", "properties": { "name": "蔡马(地铁站)", "address": "(在建)15号线" }, "geometry": { "type": "Point", "coordinates": [ 120.152728, 30.325332 ] } },
{ "type": "Feature", "properties": { "name": "皋亭坝(地铁站)", "address": "4号线" }, "geometry": { "type": "Point", "coordinates": [ 120.172197, 30.330407 ] } },
{ "type": "Feature", "properties": { "name": "瓜山(地铁站)", "address": "(在建)15号线" }, "geometry": { "type": "Point", "coordinates": [ 120.148978, 30.33479 ] } },
{ "type": "Feature", "properties": { "name": "桃源街(地铁站)", "address": "4号线" }, "geometry": { "type": "Point", "coordinates": [ 120.178545, 30.341489 ] } },
{ "type": "Feature", "properties": { "name": "吴家角港(地铁站)", "address": "4号线" }, "geometry": { "type": "Point", "coordinates": [ 120.169305, 30.351086 ] } },
{ "type": "Feature", "properties": { "name": "独城生态公园(地铁站)", "address": "4号线" }, "geometry": { "type": "Point", "coordinates": [ 120.161388, 30.357109 ] } },
{ "type": "Feature", "properties": { "name": "白洋(地铁站)", "address": "2号线" }, "geometry": { "type": "Point", "coordinates": [ 120.072905, 30.351155 ] } },
{ "type": "Feature", "properties": { "name": "良渚(地铁站)", "address": "2号线" }, "geometry": { "type": "Point", "coordinates": [ 120.041654, 30.358992 ] } },
{ "type": "Feature", "properties": { "name": "杜甫村(地铁站)", "address": "2号线" }, "geometry": { "type": "Point", "coordinates": [ 120.056549, 30.359033 ] } },
{ "type": "Feature", "properties": { "name": "好运街(地铁站)", "address": "4号线" }, "geometry": { "type": "Point", "coordinates": [ 120.100048, 30.350198 ] } },
{ "type": "Feature", "properties": { "name": "杭行路(地铁站)", "address": "10号线;4号线" }, "geometry": { "type": "Point", "coordinates": [ 120.114455, 30.353535 ] } },
{ "type": "Feature", "properties": { "name": "储运路(地铁站)", "address": "4号线" }, "geometry": { "type": "Point", "coordinates": [ 120.128247, 30.353879 ] } },
{ "type": "Feature", "properties": { "name": "平安桥(地铁站)", "address": "(在建)15号线;4号线" }, "geometry": { "type": "Point", "coordinates": [ 120.143808, 30.357189 ] } },
{ "type": "Feature", "properties": { "name": "金德路(地铁站)", "address": "10号线" }, "geometry": { "type": "Point", "coordinates": [ 120.114259, 30.364386 ] } },
{ "type": "Feature", "properties": { "name": "康桥(地铁站)", "address": "(在建)15号线" }, "geometry": { "type": "Point", "coordinates": [ 120.145555, 30.368468 ] } },
{ "type": "Feature", "properties": { "name": "龙腾街(地铁站)", "address": "(在建)15号线" }, "geometry": { "type": "Point", "coordinates": [ 120.14443, 30.37725 ] } },
{ "type": "Feature", "properties": { "name": "逸盛路(地铁站)", "address": "(在建)地铁10号线二期;10号线" }, "geometry": { "type": "Point", "coordinates": [ 120.113559, 30.378893 ] } },
{ "type": "Feature", "properties": { "name": "双陈(地铁站)", "address": "(在建)地铁10号线二期" }, "geometry": { "type": "Point", "coordinates": [ 120.104068, 30.395512 ] } },
{ "type": "Feature", "properties": { "name": "云会(地铁站)", "address": "(在建)地铁10号线二期" }, "geometry": { "type": "Point", "coordinates": [ 120.101871, 30.413592 ] } },
{ "type": "Feature", "properties": { "name": "沾驾桥路(地铁站)", "address": "(在建)15号线" }, "geometry": { "type": "Point", "coordinates": [ 120.150039, 30.382609 ] } },
{ "type": "Feature", "properties": { "name": "崇杭街(地铁站)", "address": "(在建)15号线" }, "geometry": { "type": "Point", "coordinates": [ 120.164043, 30.382706 ] } },
{ "type": "Feature", "properties": { "name": "崇贤(地铁站)", "address": "(在建)15号线" }, "geometry": { "type": "Point", "coordinates": [ 120.177601, 30.383468 ] } },
{ "type": "Feature", "properties": { "name": "仁和南(地铁站)", "address": "(在建)地铁10号线二期" }, "geometry": { "type": "Point", "coordinates": [ 120.097177, 30.428421 ] } },
{ "type": "Feature", "properties": { "name": "仁和(地铁站)", "address": "(在建)地铁10号线二期" }, "geometry": { "type": "Point", "coordinates": [ 120.09114, 30.442176 ] } },
{ "type": "Feature", "properties": { "name": "仁和北(地铁站)", "address": "(在建)地铁10号线二期;(在建)杭德城际铁路" }, "geometry": { "type": "Point", "coordinates": [ 120.077554, 30.450835 ] } },
{ "type": "Feature", "properties": { "name": "五堡(地铁站)", "address": "9号线" }, "geometry": { "type": "Point", "coordinates": [ 120.242115, 30.280647 ] } },
{ "type": "Feature", "properties": { "name": "六堡(地铁站)", "address": "9号线" }, "geometry": { "type": "Point", "coordinates": [ 120.251166, 30.286241 ] } },
{ "type": "Feature", "properties": { "name": "红普南路(地铁站)", "address": "9号线" }, "geometry": { "type": "Point", "coordinates": [ 120.263187, 30.292956 ] } },
{ "type": "Feature", "properties": { "name": "七堡(地铁站)", "address": "1号线" }, "geometry": { "type": "Point", "coordinates": [ 120.241065, 30.300002 ] } },
{ "type": "Feature", "properties": { "name": "九睦路(地铁站)", "address": "9号线" }, "geometry": { "type": "Point", "coordinates": [ 120.271195, 30.305715 ] } },
{ "type": "Feature", "properties": { "name": "九和路(地铁站)", "address": "1号线" }, "geometry": { "type": "Point", "coordinates": [ 120.252784, 30.305799 ] } },
{ "type": "Feature", "properties": { "name": "九堡(地铁站)", "address": "1号线" }, "geometry": { "type": "Point", "coordinates": [ 120.266432, 30.307735 ] } },
{ "type": "Feature", "properties": { "name": "客运中心(地铁站)", "address": "1号线;9号线" }, "geometry": { "type": "Point", "coordinates": [ 120.278837, 30.311145 ] } },
{ "type": "Feature", "properties": { "name": "九昌路(地铁站)", "address": "(在建)18号线" }, "geometry": { "type": "Point", "coordinates": [ 120.25877, 30.317014 ] } },
{ "type": "Feature", "properties": { "name": "乔司南(地铁站)", "address": "9号线" }, "geometry": { "type": "Point", "coordinates": [ 120.290691, 30.327319 ] } },
{ "type": "Feature", "properties": { "name": "桥头堡(地铁站)", "address": "8号线" }, "geometry": { "type": "Point", "coordinates": [ 120.432445, 30.303126 ] } },
{ "type": "Feature", "properties": { "name": "金沙湖(地铁站)", "address": "1号线" }, "geometry": { "type": "Point", "coordinates": [ 120.32572, 30.309246 ] } },
{ "type": "Feature", "properties": { "name": "高沙路(地铁站)", "address": "1号线" }, "geometry": { "type": "Point", "coordinates": [ 120.335408, 30.30942 ] } },
{ "type": "Feature", "properties": { "name": "下沙西(地铁站)", "address": "1号线" }, "geometry": { "type": "Point", "coordinates": [ 120.312534, 30.309918 ] } },
{ "type": "Feature", "properties": { "name": "文泽路(地铁站)", "address": "1号线" }, "geometry": { "type": "Point", "coordinates": [ 120.350055, 30.310059 ] } },
{ "type": "Feature", "properties": { "name": "工商大学云滨(地铁站)", "address": "8号线" }, "geometry": { "type": "Point", "coordinates": [ 120.393007, 30.310979 ] } },
{ "type": "Feature", "properties": { "name": "文海南路(地铁站)", "address": "1号线;8号线" }, "geometry": { "type": "Point", "coordinates": [ 120.375052, 30.310983 ] } },
{ "type": "Feature", "properties": { "name": "启成路(地铁站)", "address": "7号线" }, "geometry": { "type": "Point", "coordinates": [ 120.494397, 30.311968 ] } },
{ "type": "Feature", "properties": { "name": "江东二路(地铁站)", "address": "7号线" }, "geometry": { "type": "Point", "coordinates": [ 120.494724, 30.32362 ] } },
{ "type": "Feature", "properties": { "name": "翁梅(地铁站)", "address": "9号线" }, "geometry": { "type": "Point", "coordinates": [ 120.295006, 30.364832 ] } },
{ "type": "Feature", "properties": { "name": "明石路(地铁站)", "address": "4号线" }, "geometry": { "type": "Point", "coordinates": [ 120.22742, 30.303573 ] } },
{ "type": "Feature", "properties": { "name": "黎明(地铁站)", "address": "(在建)18号线;4号线" }, "geometry": { "type": "Point", "coordinates": [ 120.223611, 30.315246 ] } },
{ "type": "Feature", "properties": { "name": "笕桥老街(地铁站)", "address": "4号线" }, "geometry": { "type": "Point", "coordinates": [ 120.219652, 30.323009 ] } },
{ "type": "Feature", "properties": { "name": "华中南路(地铁站)", "address": "4号线" }, "geometry": { "type": "Point", "coordinates": [ 120.200064, 30.323978 ] } },
{ "type": "Feature", "properties": { "name": "汽轮广场(地铁站)", "address": "3号线" }, "geometry": { "type": "Point", "coordinates": [ 120.188317, 30.334899 ] } },
{ "type": "Feature", "properties": { "name": "华丰路(地铁站)", "address": "3号线" }, "geometry": { "type": "Point", "coordinates": [ 120.204384, 30.34005 ] } },
{ "type": "Feature", "properties": { "name": "同协路(地铁站)", "address": "3号线" }, "geometry": { "type": "Point", "coordinates": [ 120.211873, 30.344386 ] } },
{ "type": "Feature", "properties": { "name": "桃花湖公园(地铁站)", "address": "3号线" }, "geometry": { "type": "Point", "coordinates": [ 120.221315, 30.351468 ] } },
{ "type": "Feature", "properties": { "name": "丁桥(地铁站)", "address": "3号线" }, "geometry": { "type": "Point", "coordinates": [ 120.234606, 30.355786 ] } },
{ "type": "Feature", "properties": { "name": "华鹤街(地铁站)", "address": "3号线" }, "geometry": { "type": "Point", "coordinates": [ 120.237758, 30.370397 ] } },
{ "type": "Feature", "properties": { "name": "丰收湖(地铁站)", "address": "(在建)18号线" }, "geometry": { "type": "Point", "coordinates": [ 120.277489, 30.329232 ] } },
{ "type": "Feature", "properties": { "name": "乔司(地铁站)", "address": "9号线" }, "geometry": { "type": "Point", "coordinates": [ 120.285261, 30.346865 ] } },
{ "type": "Feature", "properties": { "name": "永玄路(地铁站)", "address": "(在建)18号线" }, "geometry": { "type": "Point", "coordinates": [ 120.274257, 30.35914 ] } },
{ "type": "Feature", "properties": { "name": "文正街(地铁站)", "address": "(在建)18号线;(在建)杭海城际铁路西延" }, "geometry": { "type": "Point", "coordinates": [ 120.283391, 30.380173 ] } },
{ "type": "Feature", "properties": { "name": "黄鹤山(地铁站)", "address": "3号线" }, "geometry": { "type": "Point", "coordinates": [ 120.246438, 30.380952 ] } },
{ "type": "Feature", "properties": { "name": "星桥(地铁站)", "address": "(在建)3号线二期;3号线" }, "geometry": { "type": "Point", "coordinates": [ 120.263582, 30.389241 ] } },
{ "type": "Feature", "properties": { "name": "荷禹路(地铁站)", "address": "9号线" }, "geometry": { "type": "Point", "coordinates": [ 120.284569, 30.434063 ] } },
{ "type": "Feature", "properties": { "name": "五洲路(地铁站)", "address": "9号线" }, "geometry": { "type": "Point", "coordinates": [ 120.278916, 30.444745 ] } },
{ "type": "Feature", "properties": { "name": "龙安(地铁站)", "address": "(在建)9号线二期;9号线" }, "geometry": { "type": "Point", "coordinates": [ 120.273183, 30.455958 ] } },
{ "type": "Feature", "properties": { "name": "康信路(地铁站)", "address": "(在建)9号线二期" }, "geometry": { "type": "Point", "coordinates": [ 120.270116, 30.465096 ] } },
{ "type": "Feature", "properties": { "name": "临平南高铁站(地铁站)", "address": "(在建)杭海城际铁路西延;9号线;杭海城际/杭海线" }, "geometry": { "type": "Point", "coordinates": [ 120.297858, 30.382057 ] } },
{ "type": "Feature", "properties": { "name": "南苑(地铁站)", "address": "9号线" }, "geometry": { "type": "Point", "coordinates": [ 120.302396, 30.394918 ] } },
{ "type": "Feature", "properties": { "name": "世纪大道(地铁站)", "address": "(在建)18号线;(在建)3号线二期" }, "geometry": { "type": "Point", "coordinates": [ 120.291644, 30.401273 ] } },
{ "type": "Feature", "properties": { "name": "临平(地铁站)", "address": "(在建)3号线二期;9号线" }, "geometry": { "type": "Point", "coordinates": [ 120.304068, 30.406793 ] } },
{ "type": "Feature", "properties": { "name": "人民大道(地铁站)", "address": "(在建)3号线二期" }, "geometry": { "type": "Point", "coordinates": [ 120.307027, 30.414404 ] } },
{ "type": "Feature", "properties": { "name": "邱山大街(地铁站)", "address": "9号线" }, "geometry": { "type": "Point", "coordinates": [ 120.295189, 30.420768 ] } },
{ "type": "Feature", "properties": { "name": "史家埭(地铁站)", "address": "(在建)3号线二期" }, "geometry": { "type": "Point", "coordinates": [ 120.305799, 30.422745 ] } },
{ "type": "Feature", "properties": { "name": "星光街(地铁站)", "address": "(在建)3号线二期" }, "geometry": { "type": "Point", "coordinates": [ 120.304906, 30.430346 ] } },
{ "type": "Feature", "properties": { "name": "兴盛路(地铁站)", "address": "(在建)9号线二期" }, "geometry": { "type": "Point", "coordinates": [ 120.22209, 30.468958 ] } },
{ "type": "Feature", "properties": { "name": "兴超路(地铁站)", "address": "(在建)9号线二期" }, "geometry": { "type": "Point", "coordinates": [ 120.211557, 30.472687 ] } },
{ "type": "Feature", "properties": { "name": "塘栖(地铁站)", "address": "(在建)9号线二期" }, "geometry": { "type": "Point", "coordinates": [ 120.200202, 30.476081 ] } },
{ "type": "Feature", "properties": { "name": "兴元路(地铁站)", "address": "(在建)9号线二期" }, "geometry": { "type": "Point", "coordinates": [ 120.269988, 30.47152 ] } },
{ "type": "Feature", "properties": { "name": "星河北路(地铁站)", "address": "(在建)9号线二期" }, "geometry": { "type": "Point", "coordinates": [ 120.24464, 30.4745 ] } },
{ "type": "Feature", "properties": { "name": "康泰路(地铁站)", "address": "(在建)9号线二期" }, "geometry": { "type": "Point", "coordinates": [ 120.256466, 30.476383 ] } }
]
}
